[
    {
        "address": "458 Vail Valley Drive",
        "area": "Denver / Colorado",
        "city": "Vail",
        "country": "US",
        "id": 255,
        "image_url": "https://www.opentable.com/img/restimages/255.jpg",
        "lat": 39.6395378112793,
        "lng": -106.37007141113281,
        "mobile_reserve_url": "http://mobile.opentable.com/opentable/?restId=255",
        "name": "Larkspur Restaurant & Bar",
        "phone": "(970)754-8050  x",
        "postal_code": "81657",
        "price": 2,
        "reserve_url": "http://www.opentable.com/single.aspx?rid=255",
        "state": "CO"
    },
    {
        "address": "1919 Briar Oaks Lane",
        "area": "Houston",
        "city": "Houston",
        "country": "US",
        "id": 588,
        "image_url": "https://www.opentable.com/img/restimages/588.jpg",
        "lat": 29.748289108276367,
        "lng": -95.45106506347656,
        "mobile_reserve_url": "http://mobile.opentable.com/opentable/?restId=588",
        "name": "The Remington",
        "phone": "7134032631x",
        "postal_code": "77027",
        "price": 3,
        "reserve_url": "http://www.opentable.com/single.aspx?rid=588",
        "state": "TX"
    },
    {
        "address": "3939 San Felipe Road",
        "area": "Houston",
        "city": "Houston",
        "country": "US",
        "id": 797,
        "image_url": "https://www.opentable.com/img/restimages/797.jpg",
        "lat": 29.746662139892578,
        "lng": -95.44279479980469,
        "mobile_reserve_url": "http://mobile.opentable.com/opentable/?restId=797",
        "name": "Ouisie's Table",
        "phone": "7135282264x",
        "postal_code": "77027",
        "price": 2,
        "reserve_url": "http://www.opentable.com/single.aspx?rid=797",
        "state": "TX"
    },
    {
        "address": "909 17th St.",
        "area": "Denver / Colorado",
        "city": "Denver",
        "country": "US",
        "id": 858,
        "image_url": "https://www.opentable.com/img/restimages/858.jpg",
        "lat": 39.74763870239258,
        "lng": -104.99275207519531,
        "mobile_reserve_url": "http://mobile.opentable.com/opentable/?restId=858",
        "name": "Panzano",
        "phone": "3032963525x",
        "postal_code": "80202",
        "price": 3,
        "reserve_url": "http://www.opentable.com/single.aspx?rid=858",
        "state": "CO"
    },
    {
        "address": "190 Saint Paul Street",
        "area": "Denver / Colorado",
        "city": "Denver",
        "country": "US",
        "id": 860,
        "image_url": "https://www.opentable.com/img/restimages/860.jpg",
        "lat": 39.719181060791016,
        "lng": -104.95111846923828,
        "mobile_reserve_url": "http://mobile.opentable.com/opentable/?restId=860",
        "name": "Piatti - Denver",
        "phone": "3033211919",
        "postal_code": "80206",
        "price": 2,
        "reserve_url": "http://www.opentable.com/single.aspx?rid=860",
        "state": "CO"
    },
    {
        "address": "2055 Westheimer at Shepherd",
        "area": "Houston",
        "city": "Houston",
        "country": "US",
        "id": 882,
        "image_url": "https://www.opentable.com/img/restimages/882.jpg",
        "lat": 29.742523193359375,
        "lng": -95.41007232666016,
        "mobile_reserve_url": "http://mobile.opentable.com/opentable/?restId=882",
        "name": "Churrascos - River Oaks",
        "phone": "7135278300x",
        "postal_code": "77098",
        "price": 3,
        "reserve_url": "http://www.opentable.com/single.aspx?rid=882",
        "state": "TX"
    },
    {
        "address": "9705 Westheimer at Gessner",
        "area": "Houston",
        "city": "Houston",
        "country": "US",
        "id": 883,
        "image_url": "https://www.opentable.com/img/restimages/883.jpg",
        "lat": 29.737062454223633,
        "lng": -95.53926086425781,
        "mobile_reserve_url": "http://mobile.opentable.com/opentable/?restId=883",
        "name": "Churrascos - Westchase",
        "phone": "7139521988x",
        "postal_code": "77042",
        "price": 2,
        "reserve_url": "http://www.opentable.com/single.aspx?rid=883",
        "state": "TX"
    },
    {
        "address": "500 Crescent Court #165",
        "area": "Dallas - Fort Worth",
        "city": "Dallas",
        "country": "US",
        "id": 1062,
        "image_url": "https://www.opentable.com/img/restimages/1062.jpg",
        "lat": 32.793941497802734,
        "lng": -96.80445098876953,
        "mobile_reserve_url": "http://mobile.opentable.com/opentable/?restId=1062",
        "name": "Palomino - Dallas",
        "phone": "2149991222x",
        "postal_code": "75201",
        "price": 2,
        "reserve_url": "http://www.opentable.com/single.aspx?rid=1062",
        "state": "TX"
    },
    {
        "address": "2017 Post Office Street",
        "area": "Houston",
        "city": "Galveston",
        "country": "US",
        "id": 1281,
        "image_url": "https://www.opentable.com/img/restimages/1281.jpg",
        "lat": 29.30529022216797,
        "lng": -94.7902603149414,
        "mobile_reserve_url": "http://mobile.opentable.com/opentable/?restId=1281",
        "name": "Saltwater Grill",
        "phone": "4097623474",
        "postal_code": "77550",
        "price": 2,
        "reserve_url": "http://www.opentable.com/single.aspx?rid=1281",
        "state": "TX"
    },
    {
        "address": "44 Meadow Lane",
        "area": "Denver / Colorado",
        "city": "Avon",
        "country": "US",
        "id": 1357,
        "image_url": "https://www.opentable.com/img/restimages/1357.jpg",
        "lat": 39.6053352355957,
        "lng": -106.50934600830078,
        "mobile_reserve_url": "http://mobile.opentable.com/opentable/?restId=1357",
        "name": "SaddleRidge",
        "phone": "9707545456x",
        "postal_code": "81620",
        "price": 4,
        "reserve_url": "http://www.opentable.com/single.aspx?rid=1357",
        "state": "CO"
    },
    {
        "address": "Located in the Plaza",
        "area": "Denver / Colorado",
        "city": "Avon",
        "country": "US",
        "id": 1372,
        "image_url": "https://www.opentable.com/img/restimages/1372.jpg",
        "lat": 39.604591369628906,
        "lng": -106.5169448852539,
        "mobile_reserve_url": "http://mobile.opentable.com/opentable/?restId=1372",
        "name": "Toscanini",
        "phone": "9707545590x",
        "postal_code": "81620",
        "price": 3,
        "reserve_url": "http://www.opentable.com/single.aspx?rid=1372",
        "state": "CO"
    },
    {
        "address": "Beaver Creek Resort",
        "area": "Denver / Colorado",
        "city": "Avon",
        "country": "US",
        "id": 1467,
        "image_url": "https://www.opentable.com/img/restimages/1467.jpg",
        "lat": 39.63087844848633,
        "lng": -106.52175903320313,
        "mobile_reserve_url": "http://mobile.opentable.com/opentable/?restId=1467",
        "name": "Beano's Cabin",
        "phone": "9707543463x",
        "postal_code": "81620",
        "price": 4,
        "reserve_url": "http://www.opentable.com/single.aspx?rid=1467",
        "state": "CO"
    }
]